{"name":"Farley's House of Pianos","address":"6522 Seybold Rd","city":"Madison","state":"WI","postal_code":"53719","latitude":43.052415,"longitude":-89.494739,"is_open":1,"attributes":{"BusinessAcceptsBitcoin":"False","BusinessAcceptsCreditCards":"True","BusinessParking":"{'garage': False, 'street': False, 'validated': False, 'lot': True, 'valet': False}","RestaurantsPriceRange2":"3"},"categories":"Musical Instruments & Teachers, Shopping, Local Services, Musical Instrument Services, Piano Stores","hours":{"Monday":"10:0-18:0","Tuesday":"10:0-18:0","Wednesday":"10:0-18:0","Thursday":"10:0-18:0","Friday":"10:0-17:0","Saturday":"10:0-17:0","Sunday":"12:0-16:0"}}
{"name":"Les Branchés Lunetterie","address":"1821 avenue Mont-Royal Est","city":"Montréal","state":"QC","postal_code":"H2H 1W6","latitude":45.5333681,"longitude":-73.5743003,"is_open":1,"attributes":{"RestaurantsPriceRange2":"3","BusinessParking":"{'garage': False, 'street': True, 'validated': False, 'lot': False, 'valet': False}","BikeParking":"True"},"categories":"Health & Medical, Shopping, Optometrists, Eyewear & Opticians","hours":{"Monday":"10:0-18:0","Tuesday":"10:0-18:0","Wednesday":"10:0-18:0","Thursday":"10:0-18:0","Friday":"10:0-18:0","Saturday":"10:0-18:0","Sunday":"10:0-18:0"}}
{"name":"Celas's Pizza","address":"5510 W Camelback Rd","city":"Glendale","state":"AZ","postal_code":"85301","latitude":33.510173,"longitude":-112.178647,"is_open":1,"attributes":{"Ambience":"{'touristy': False, 'hipster': False, 'romantic': False, 'divey': False, 'intimate': False, 'trendy': False, 'upscale': False, 'classy': False, 'casual': False}","RestaurantsDelivery":"True","BusinessAcceptsCreditCards":"True","RestaurantsGoodForGroups":"True","RestaurantsPriceRange2":"1","RestaurantsAttire":"'dressy'","GoodForKids":"True","RestaurantsReservations":"False","RestaurantsTakeOut":"True","WiFi":"u'no'","GoodForMeal":"{'dessert': False, 'latenight': False, 'lunch': False, 'dinner': False, 'brunch': False, 'breakfast': False}"},"categories":"Restaurants, Chicken Wings, Mexican, Pizza","hours":{"Monday":"0:0-0:0","Tuesday":"13:0-20:45","Wednesday":"13:0-20:45","Thursday":"13:0-20:45","Friday":"13:0-21:45","Saturday":"13:0-21:45"}}
{"name":"K Fashion","address":"2835 N 16th St","city":"Phoenix","state":"AZ","postal_code":"85006","latitude":33.4789394,"longitude":-112.0467987,"is_open":1,"attributes":{"DogsAllowed":"True","WheelchairAccessible":"False","BusinessParking":"{'garage': False, 'street': False, 'validated': False, 'lot': True, 'valet': False}","BikeParking":"False","BusinessAcceptsCreditCards":"True","BusinessAcceptsBitcoin":"False"},"categories":"Shopping, Fashion, Women's Clothing, Men's Clothing","hours":{"Monday":"11:0-19:30","Tuesday":"10:0-19:30","Wednesday":"10:0-19:30","Thursday":"10:0-19:30","Friday":"10:0-19:30","Saturday":"10:0-19:30","Sunday":"12:0-18:30"}}
{"name":"Lu's Barbershop and Salon","address":"7940 Tree Ln, Ste 113","city":"Madison","state":"WI","postal_code":"53717","latitude":43.0616610009,"longitude":-89.5199353001,"is_open":1,"attributes":null,"categories":"Barbers, Hair Stylists, Men's Hair Salons, Beauty & Spas, Hair Salons","hours":null}
{"name":"Ribkens Cpr","address":"226 Center Rd","city":"Monroeville","state":"PA","postal_code":"15146","latitude":40.4405424,"longitude":-79.7670274,"is_open":1,"attributes":{"GoodForKids":"False","RestaurantsGoodForGroups":"False"},"categories":"Restaurants, Pizza","hours":null}
{"name":"The Skin Center Medical Spa","address":"806 S Aiken Ave","city":"Pittsburgh","state":"PA","postal_code":"15232","latitude":40.4507282,"longitude":-79.9357367,"is_open":1,"attributes":{"BikeParking":"False","ByAppointmentOnly":"True","BusinessParking":"{'garage': False, 'street': False, 'validated': False, 'lot': True, 'valet': False}","BusinessAcceptsCreditCards":"True","RestaurantsPriceRange2":"3"},"categories":"Laser Hair Removal, Beauty & Spas, Hair Removal, Skin Care, Vascular Medicine, Medical Spas, Health & Medical, Doctors, Cosmetic Surgeons","hours":{"Monday":"10:0-20:0","Tuesday":"9:0-17:0","Wednesday":"9:0-19:0","Thursday":"10:0-18:0","Friday":"10:0-15:0"}}
{"name":"Toronto Oktoberfest","address":"955 Lake Shore Boulevard W","city":"Toronto","state":"ON","postal_code":"M6K 3B9","latitude":43.6304576,"longitude":-79.4141654,"is_open":1,"attributes":{"GoodForKids":"False"},"categories":"Festivals, Arts & Entertainment, Local Flavor","hours":null}
{"name":"Big Lots","address":"9535 S Blvd, Ste C","city":"Charlotte","state":"NC","postal_code":"28273","latitude":35.108229,"longitude":-80.877654,"is_open":1,"attributes":{"BusinessParking":"None","RestaurantsPriceRange2":"2","BikeParking":"False","BusinessAcceptsCreditCards":"True"},"categories":"Fashion, Home & Garden, Shopping, Discount Store, Home Decor, Department Stores, Furniture Stores","hours":{"Monday":"9:0-21:0","Tuesday":"9:0-21:0","Wednesday":"9:0-21:0","Thursday":"9:0-21:0","Friday":"9:0-21:0","Saturday":"8:0-22:0","Sunday":"8:0-22:0"}}
{"name":"Supercuts","address":"209 S Stephanie St, Horizon Place Shopping Center","city":"Henderson","state":"NV","postal_code":"89012","latitude":36.02067,"longitude":-115.047899,"is_open":1,"attributes":{"WheelchairAccessible":"True","RestaurantsPriceRange2":"1","ByAppointmentOnly":"False","GoodForKids":"True","BikeParking":"False","BusinessParking":"{'garage': False, 'street': False, 'validated': False, 'lot': False, 'valet': False}","BusinessAcceptsCreditCards":"True"},"categories":"Beauty & Spas, Men's Hair Salons, Hair Salons","hours":{"Monday":"9:0-19:0","Tuesday":"9:0-19:0","Wednesday":"9:0-19:0","Thursday":"9:0-19:0","Friday":"8:0-19:0","Saturday":"8:0-19:0","Sunday":"9:0-19:0"}}
{"name":"Hazel Palpu MD","address":"7514 E Monterey Way","city":"Scottsdale","state":"AZ","postal_code":"85251","latitude":33.4860736,"longitude":-111.9189465,"is_open":1,"attributes":{"ByAppointmentOnly":"True"},"categories":"Health & Medical, Psychiatrists, Doctors","hours":null}
{"name":"Gold Mine Bar & Grill","address":"3950 Koval Ln","city":"Las Vegas","state":"NV","postal_code":"89109","latitude":36.1179234185,"longitude":-115.1607697557,"is_open":1,"attributes":{"Alcohol":"'full_bar'","HasTV":"True","OutdoorSeating":"True","RestaurantsAttire":"'casual'","RestaurantsPriceRange2":"2","BikeParking":"False","GoodForKids":"True","HappyHour":"True","WiFi":"'free'","GoodForDancing":"False","Music":"{'dj': False, 'background_music': False, 'no_music': False, 'jukebox': False, 'live': False, 'video': False, 'karaoke': False}","RestaurantsDelivery":"False","RestaurantsTableService":"True","Ambience":"{'touristy': False, 'hipster': False, 'romantic': False, 'divey': False, 'intimate': False, 'trendy': False, 'upscale': False, 'classy': False, 'casual': True}","BusinessAcceptsCreditCards":"True","RestaurantsGoodForGroups":"True","RestaurantsReservations":"False","RestaurantsTakeOut":"True","BusinessParking":"{'garage': False, 'street': False, 'validated': False, 'lot': False, 'valet': False}","GoodForMeal":"{'dessert': False, 'latenight': False, 'lunch': True, 'dinner': True, 'brunch': True, 'breakfast': False}"},"categories":"American (Traditional), Nightlife, Restaurants, Bars","hours":{"Monday":"7:0-22:0","Tuesday":"7:0-22:0","Wednesday":"7:0-22:0","Thursday":"7:0-22:0","Friday":"7:0-23:0","Saturday":"7:0-23:0","Sunday":"7:0-22:0"}}
{"name":"Stonelike Refinishing","address":"","city":"Scottsdale","state":"AZ","postal_code":"85257","latitude":33.468848,"longitude":-111.910516,"is_open":1,"attributes":{"BusinessAcceptsCreditCards":"True"},"categories":"Home Cleaning, Damage Restoration, Refinishing Services, Home Services, Contractors","hours":{"Monday":"9:0-17:0","Tuesday":"9:0-17:0","Wednesday":"9:0-17:0","Thursday":"9:0-17:0","Friday":"9:0-17:0"}}
{"name":"Guerlain Canada","address":"110 Bloor Street W","city":"Toronto","state":"ON","postal_code":"M5S 2W7","latitude":43.6694469,"longitude":-79.3922208,"is_open":1,"attributes":{"RestaurantsPriceRange2":"3","ByAppointmentOnly":"True"},"categories":"Beauty & Spas, Skin Care, Shopping, Cosmetics & Beauty Supply, Makeup Artists","hours":null}
{"name":"Wildburger","address":"2800 S Rancho Dr","city":"Las Vegas","state":"NV","postal_code":"89102","latitude":36.1939353943,"longitude":-115.1919021606,"is_open":0,"attributes":{"NoiseLevel":"u'average'","RestaurantsDelivery":"False","RestaurantsPriceRange2":"1","BusinessParking":"{'garage': False, 'street': False, 'validated': False, 'lot': True, 'valet': False}","RestaurantsTakeOut":"True","Alcohol":"u'none'","BusinessAcceptsCreditCards":"True","OutdoorSeating":"False","Caters":"False","RestaurantsReservations":"False","WiFi":"u'no'","RestaurantsGoodForGroups":"True","Ambience":"{'romantic': False, 'intimate': False, 'touristy': False, 'hipster': False, 'divey': False, 'classy': False, 'trendy': False, 'upscale': False, 'casual': True}","RestaurantsAttire":"u'casual'","HasTV":"True","GoodForKids":"True"},"categories":"Bars, Food, Burgers, Nightlife, American (New), Restaurants","hours":{"Monday":"0:0-12:0","Tuesday":"0:0-12:0","Wednesday":"0:0-12:0","Thursday":"0:0-12:0","Friday":"0:0-12:0","Saturday":"0:0-12:0","Sunday":"0:0-12:0"}}
{"name":"Mañana Imports & Gifts","address":"1132 Kensington Road NW","city":"Calgary","state":"AB","postal_code":"T2N 3P3","latitude":51.0526433,"longitude":-114.0880899,"is_open":1,"attributes":{"RestaurantsPriceRange2":"2","BikeParking":"True","BusinessParking":"{'garage': False, 'street': True, 'validated': False, 'lot': False, 'valet': False}","ByAppointmentOnly":"False"},"categories":"Jewelry, Arts & Crafts, Flowers & Gifts, Gift Shops, Shopping","hours":{"Monday":"10:0-17:30","Tuesday":"10:0-20:0","Wednesday":"10:0-20:0","Thursday":"10:0-20:0","Friday":"10:0-20:0","Saturday":"10:0-18:0","Sunday":"11:0-17:0"}}
{"name":"Lynn's Cafe & Quality Catering","address":"800 Broadway Ave","city":"Mc Kees Rocks","state":"PA","postal_code":"15136","latitude":40.4731366,"longitude":-80.0746284,"is_open":1,"attributes":{"BusinessAcceptsCreditCards":"True"},"categories":"Event Planning & Services, Caterers","hours":null}
{"name":"Mochica","address":"280 Concord Pkwy S, Ste 125","city":"Concord","state":"NC","postal_code":"28025","latitude":35.3980252,"longitude":-80.6108519,"is_open":1,"attributes":{"GoodForKids":"True","RestaurantsDelivery":"False","RestaurantsTakeOut":"True","HasTV":"True","RestaurantsAttire":"'casual'","BusinessParking":"{'garage': False, 'street': False, 'validated': False, 'lot': False, 'valet': False}","WiFi":"'no'","RestaurantsReservations":"False","Alcohol":"'none'","Ambience":"{'touristy': False, 'hipster': False, 'romantic': False, 'divey': False, 'intimate': False, 'trendy': False, 'upscale': False, 'classy': False, 'casual': False}","BusinessAcceptsCreditCards":"True","GoodForMeal":"{'dessert': False, 'latenight': False, 'lunch': True, 'dinner': False, 'brunch': False, 'breakfast': False}","RestaurantsPriceRange2":"1","OutdoorSeating":"False","RestaurantsTableService":"True","RestaurantsGoodForGroups":"True"},"categories":"Sandwiches, Wraps, Peruvian, Restaurants","hours":{"Monday":"11:0-21:0","Tuesday":"11:0-21:0","Wednesday":"11:0-21:0","Thursday":"11:0-21:0","Friday":"11:0-21:0","Saturday":"11:0-21:0","Sunday":"11:0-21:0"}}
{"name":"Diamond Banquet Hall","address":"First Markham Place, 3225 Highway 7 E","city":"Markham","state":"ON","postal_code":"L3R 3P3","latitude":43.8486182868,"longitude":-79.3502776479,"is_open":0,"attributes":{"RestaurantsAttire":"u'casual'","RestaurantsDelivery":"False","GoodForKids":"True","BusinessParking":"{'garage': False, 'street': False, 'validated': False, 'lot': False, 'valet': False}","RestaurantsReservations":"True","RestaurantsGoodForGroups":"True","Alcohol":"u'beer_and_wine'","RestaurantsTakeOut":"True","HasTV":"True","RestaurantsPriceRange2":"2","WiFi":"u'free'","BikeParking":"True","Ambience":"{'romantic': False, 'intimate': False, 'classy': False, 'hipster': False, 'divey': False, 'touristy': False, 'trendy': False, 'upscale': False, 'casual': False}","NoiseLevel":"u'average'","OutdoorSeating":"False","Caters":"True"},"categories":"Chinese, Asian Fusion, Event Planning & Services, Venues & Event Spaces, Restaurants, Dim Sum","hours":{"Monday":"9:0-22:0","Tuesday":"9:0-22:0","Wednesday":"9:0-22:0","Thursday":"9:0-22:0","Friday":"9:0-22:30","Saturday":"9:0-22:30","Sunday":"9:0-22:0"}}
{"name":"Sushi On Bloor","address":"525 Bloor Street W","city":"Toronto","state":"ON","postal_code":"M5S 1Y4","latitude":43.6653037,"longitude":-79.409141,"is_open":1,"attributes":{"RestaurantsPriceRange2":"2","RestaurantsDelivery":"True","BikeParking":"True","RestaurantsTakeOut":"True","RestaurantsAttire":"u'casual'","OutdoorSeating":"False","RestaurantsTableService":"True","RestaurantsReservations":"True","Alcohol":"u'beer_and_wine'","GoodForMeal":"{'dessert': False, 'latenight': False, 'lunch': True, 'dinner': True, 'brunch': False, 'breakfast': False}","GoodForKids":"True","WiFi":"u'no'","Caters":"False","BusinessParking":"{'garage': False, 'street': True, 'validated': False, 'lot': False, 'valet': False}","HasTV":"False","Ambience":"{'romantic': False, 'intimate': False, 'classy': False, 'hipster': False, 'divey': False, 'touristy': False, 'trendy': False, 'upscale': False, 'casual': True}","RestaurantsGoodForGroups":"True","NoiseLevel":"u'average'"},"categories":"Restaurants, Sushi Bars","hours":null}
{"name":"Mother Tongue","address":"348 Adelaide Street W","city":"Toronto","state":"ON","postal_code":"M5W 1R7","latitude":43.6473654,"longitude":-79.3932983,"is_open":1,"attributes":null,"categories":"Asian Fusion, Cocktail Bars, Nightlife, Bars, Restaurants","hours":{"Monday":"11:30-1:0","Tuesday":"11:30-1:0","Wednesday":"11:30-1:0","Thursday":"11:30-1:0","Friday":"11:30-2:0","Saturday":"11:30-2:0"}}
{"name":"McDonald's","address":"3501 W Bethany Home Rd","city":"Phoenix","state":"AZ","postal_code":"85019","latitude":33.5236065407,"longitude":-112.134610411,"is_open":1,"attributes":{"RestaurantsPriceRange2":"1","RestaurantsAttire":"'casual'","BusinessParking":"{'garage': False, 'street': False, 'validated': False, 'lot': False, 'valet': False}","GoodForMeal":"{'dessert': False, 'latenight': False, 'lunch': False, 'dinner': False, 'brunch': False, 'breakfast': False}","RestaurantsReservations":"False","BusinessAcceptsCreditCards":"True","BikeParking":"False","Ambience":"{'touristy': False, 'hipster': False, 'romantic': False, 'divey': False, 'intimate': False, 'trendy': False, 'upscale': False, 'classy': False, 'casual': False}","WiFi":"'free'","DriveThru":"True","GoodForKids":"True","RestaurantsTakeOut":"True","RestaurantsGoodForGroups":"True","RestaurantsDelivery":"False"},"categories":"Fast Food, Coffee & Tea, Restaurants, Food, Burgers","hours":{"Monday":"0:0-0:0","Tuesday":"0:0-0:0","Wednesday":"0:0-0:0","Thursday":"0:0-0:0","Friday":"0:0-0:0","Saturday":"0:0-0:0","Sunday":"0:0-0:0"}}
{"name":"Law Office of P. Sterling Kerr","address":"2450 St Rose Pkwy","city":"Henderson","state":"NV","postal_code":"89074","latitude":36.0200515,"longitude":-115.1014588,"is_open":1,"attributes":{"BusinessAcceptsCreditCards":"True"},"categories":"Business Law, Real Estate Law, General Litigation, Professional Services, Lawyers","hours":{"Monday":"8:0-17:0","Tuesday":"8:0-17:0","Wednesday":"8:0-17:0","Thursday":"8:0-17:0","Friday":"8:0-15:0"}}
{"name":"Precision Imports","address":"6344 N 7th St","city":"Phoenix","state":"AZ","postal_code":"85014","latitude":33.530673,"longitude":-112.065353,"is_open":1,"attributes":{"BusinessAcceptsCreditCards":"True"},"categories":"Automotive, Auto Repair","hours":null}
{"name":"Hazelton's Gifts & Gift Baskets","address":"197 Valley Road","city":"Toronto","state":"ON","postal_code":"M2L 1E3","latitude":43.7436694,"longitude":-79.3855984,"is_open":0,"attributes":{"RestaurantsPriceRange2":"2","BikeParking":"False"},"categories":"Flowers & Gifts, Gift Shops, Shopping","hours":null}
{"name":"Quick Movers","address":"","city":"Charlotte","state":"NC","postal_code":"28202","latitude":35.2326781,"longitude":-80.8460822,"is_open":1,"attributes":{"ByAppointmentOnly":"False","BusinessAcceptsCreditCards":"True"},"categories":"Packing Services, Home Services, Movers, Self Storage, Local Services","hours":{"Monday":"0:0-0:0","Tuesday":"0:0-0:0","Wednesday":"0:0-0:0","Thursday":"0:0-0:0","Friday":"0:0-0:0","Saturday":"0:0-0:0","Sunday":"0:0-0:0"}}
{"name":"LPK'S Culinary Groove","address":"718 Queen Street E","city":"Toronto","state":"ON","postal_code":"M4M 1H2","latitude":43.6589435,"longitude":-79.3495571,"is_open":0,"attributes":{"BusinessParking":"{'garage': False, 'street': True, 'validated': False, 'lot': False, 'valet': False}","RestaurantsPriceRange2":"3"},"categories":"Bakeries, Specialty Food, Desserts, Food, Caterers, Chocolatiers & Shops, Event Planning & Services","hours":{"Tuesday":"11:0-19:0","Wednesday":"11:0-19:0","Thursday":"11:0-20:0","Friday":"11:0-20:0","Saturday":"11:0-19:0"}}
{"name":"Narmin's Alterations","address":"717 W Union Hills Dr, Ste 11","city":"Phoenix","state":"AZ","postal_code":"85027","latitude":33.6538519,"longitude":-112.0835709,"is_open":0,"attributes":{"BusinessAcceptsCreditCards":"True"},"categories":"Sewing & Alterations, Local Services","hours":{"Tuesday":"11:0-18:0","Wednesday":"11:0-18:0","Thursday":"11:0-18:0","Friday":"11:0-18:0","Saturday":"10:0-15:0"}}
{"name":"Wrench","address":"","city":"Phoenix","state":"AZ","postal_code":"85013","latitude":33.448263,"longitude":-112.073821,"is_open":1,"attributes":{"BusinessAcceptsCreditCards":"True"},"categories":"Automotive, Auto Repair, Oil Change Stations","hours":{"Monday":"6:0-19:0","Tuesday":"6:0-19:0","Wednesday":"6:0-19:0","Thursday":"6:0-19:0","Friday":"6:0-19:0","Saturday":"6:0-18:0","Sunday":"6:0-18:0"}}
{"name":"Banfield Pet Hospital","address":"171 N Nellis Blvd","city":"Las Vegas","state":"NV","postal_code":"89110","latitude":36.1632085471,"longitude":-115.0637699068,"is_open":1,"attributes":null,"categories":"Pets, Veterinarians","hours":{"Monday":"7:0-19:0","Tuesday":"7:0-19:0","Wednesday":"7:0-19:0","Thursday":"7:0-19:0","Friday":"7:0-19:0","Saturday":"7:0-19:0","Sunday":"7:0-18:0"}}
{"name":"Candi's Cabaret","address":"3935 Statesville Ave","city":"Charlotte","state":"NC","postal_code":"28206","latitude":35.2714959772,"longitude":-80.8375149965,"is_open":1,"attributes":{"Music":"{'dj': True, 'background_music': False, 'no_music': False, 'jukebox': True, 'live': False, 'video': False, 'karaoke': False}","HappyHour":"False","RestaurantsReservations":"False","Alcohol":"'full_bar'","RestaurantsGoodForGroups":"True","BikeParking":"None","RestaurantsTakeOut":"None","RestaurantsDelivery":"None","RestaurantsPriceRange2":"None","Ambience":"None","OutdoorSeating":"False","GoodForDancing":"True","BusinessAcceptsCreditCards":"None","HasTV":"True"},"categories":"Restaurants, Nightlife, American (New), Bars, Adult Entertainment, Sports Bars","hours":null}
{"name":"Holy Snack","address":"4750 Yonge St, Unit 133","city":"Toronto","state":"ON","postal_code":"M2N 5M6","latitude":43.7599881101,"longitude":-79.4122253358,"is_open":1,"attributes":{"RestaurantsGoodForGroups":"True","RestaurantsDelivery":"False","WheelchairAccessible":"True","RestaurantsReservations":"False","OutdoorSeating":"True","RestaurantsTableService":"True","GoodForMeal":"{'dessert': False, 'latenight': False, 'lunch': False, 'dinner': False, 'brunch': False, 'breakfast': False}","DogsAllowed":"False","RestaurantsPriceRange2":"1","HasTV":"False","NoiseLevel":"u'average'","Caters":"True","Ambience":"{'touristy': False, 'hipster': False, 'romantic': False, 'intimate': False, 'trendy': False, 'upscale': False, 'classy': False, 'casual': True}","BusinessParking":"{'garage': True, 'street': True, 'validated': False, 'lot': False, 'valet': False}","RestaurantsTakeOut":"True","GoodForKids":"True","WiFi":"u'free'","BikeParking":"True","Alcohol":"u'none'","RestaurantsAttire":"u'casual'"},"categories":"Restaurants, Vietnamese, Juice Bars & Smoothies, Asian Fusion, Food, Desserts","hours":{"Monday":"0:0-0:0","Tuesday":"11:0-21:0","Wednesday":"11:0-21:0","Thursday":"11:0-21:0","Friday":"11:0-21:0","Saturday":"11:30-20:0"}}
{"name":"Mike Williams","address":"1414 S Neil St","city":"Champaign","state":"IL","postal_code":"61820","latitude":40.0997488,"longitude":-88.2440972,"is_open":1,"attributes":{"BusinessAcceptsCreditCards":"True","ByAppointmentOnly":"False"},"categories":"Heating & Air Conditioning\/HVAC, Home Services, Advertising, Plumbing, Water Heater Installation\/Repair, Professional Services","hours":{"Monday":"0:0-0:0","Tuesday":"0:0-0:0","Wednesday":"0:0-0:0","Thursday":"0:0-0:0","Friday":"0:0-0:0","Saturday":"0:0-0:0","Sunday":"0:0-0:0"}}
{"name":"You Move Me Charlotte","address":"10617 Kettering Dr, Ste 108","city":"Charlotte","state":"NC","postal_code":"28226","latitude":35.2404750282,"longitude":-80.913536895,"is_open":1,"attributes":{"BusinessAcceptsCreditCards":"True","ByAppointmentOnly":"True","BusinessAcceptsBitcoin":"False"},"categories":"Home Services, Movers","hours":{"Monday":"7:0-19:30","Tuesday":"7:0-19:30","Wednesday":"7:0-19:30","Thursday":"7:0-19:30","Friday":"7:0-19:30","Saturday":"7:0-19:30","Sunday":"7:30-19:30"}}
{"name":"Venetian Banquet & Hospitality Centre","address":"219 Romina Drive","city":"Concord","state":"ON","postal_code":"L4K 4V3","latitude":43.8173482,"longitude":-79.5301207,"is_open":1,"attributes":{"RestaurantsPriceRange2":"3","BusinessParking":"{'garage': False, 'street': False, 'validated': False, 'lot': True, 'valet': False}"},"categories":"Shopping, Event Planning & Services, Venues & Event Spaces","hours":null}
{"name":"Little Caesars","address":", 1705C 17 Avenue S W","city":"Calgary","state":"AB","postal_code":"T2T 0E6","latitude":51.0374512028,"longitude":-113.99221614,"is_open":1,"attributes":{"RestaurantsTakeOut":"True","BusinessParking":"{'garage': False, 'street': False, 'validated': False, 'lot': False, 'valet': False}","HasTV":"True","Caters":"False","RestaurantsReservations":"False","RestaurantsDelivery":"True","OutdoorSeating":"True","BikeParking":"True","GoodForMeal":"{'dessert': False, 'latenight': False, 'lunch': False, 'dinner': False, 'brunch': False, 'breakfast': False}","RestaurantsGoodForGroups":"False","RestaurantsPriceRange2":"1","NoiseLevel":"u'quiet'","Ambience":"{'romantic': False, 'intimate': False, 'classy': False, 'hipster': False, 'divey': False, 'touristy': False, 'trendy': False, 'upscale': False, 'casual': False}","RestaurantsAttire":"u'casual'","Alcohol":"u'none'","GoodForKids":"True","RestaurantsTableService":"False","WiFi":"u'no'"},"categories":"Restaurants, Food, Pizza","hours":null}
{"name":"Taco Bell","address":"1125 S Dobson Rd","city":"Mesa","state":"AZ","postal_code":"85202","latitude":33.394408,"longitude":-111.874483,"is_open":1,"attributes":{"RestaurantsReservations":"False","RestaurantsPriceRange2":"1","BikeParking":"True","BusinessParking":"{'garage': False, 'street': False, 'validated': False, 'lot': False, 'valet': False}","RestaurantsTableService":"False","Alcohol":"u'none'","Ambience":"{'romantic': False, 'intimate': False, 'classy': False, 'hipster': False, 'divey': False, 'touristy': False, 'trendy': False, 'upscale': False, 'casual': False}","Caters":"False","RestaurantsGoodForGroups":"True","RestaurantsAttire":"u'casual'","RestaurantsTakeOut":"True","BusinessAcceptsCreditCards":"True","OutdoorSeating":"False","GoodForKids":"True","GoodForMeal":"{'dessert': False, 'latenight': False, 'lunch': False, 'dinner': False, 'brunch': False, 'breakfast': False}","WiFi":"'no'","DriveThru":"True","RestaurantsDelivery":"False","NoiseLevel":"'quiet'","HasTV":"False"},"categories":"Fast Food, Mexican, Tex-Mex, Restaurants","hours":{"Monday":"7:0-22:0","Tuesday":"7:0-22:0","Wednesday":"7:0-22:0","Thursday":"7:0-22:0","Friday":"7:0-22:0","Saturday":"7:0-22:0","Sunday":"7:0-22:0"}}
{"name":"A Cafe","address":"1350 Euclid Ave, Ste 1400","city":"Cleveland","state":"OH","postal_code":"44115","latitude":41.5003774,"longitude":-81.6817679,"is_open":0,"attributes":{"OutdoorSeating":"False","RestaurantsAttire":"u'casual'","RestaurantsDelivery":"False","BusinessAcceptsCreditCards":"False","Alcohol":"u'none'","RestaurantsReservations":"False","RestaurantsTakeOut":"True","Ambience":"{'romantic': False, 'intimate': False, 'touristy': False, 'hipster': False, 'divey': False, 'classy': False, 'trendy': False, 'upscale': False, 'casual': False}","RestaurantsPriceRange2":"1"},"categories":"Breakfast & Brunch, Restaurants","hours":{"Monday":"6:30-14:30","Tuesday":"6:30-14:30","Wednesday":"6:30-14:30","Thursday":"6:30-14:30","Friday":"6:30-14:30"}}
{"name":"Elyria Public Library","address":"1194 W River Rd N","city":"Elyria","state":"OH","postal_code":"44035","latitude":41.3901833,"longitude":-82.1058132,"is_open":1,"attributes":{"WiFi":"'free'"},"categories":"Public Services & Government, Libraries","hours":null}
{"name":"Douglas Smith, MD","address":"2131 E Southern Ave","city":"Tempe","state":"AZ","postal_code":"85282","latitude":33.392263,"longitude":-111.895451,"is_open":1,"attributes":{"ByAppointmentOnly":"True"},"categories":"Health & Medical, Doctors, Ear Nose & Throat","hours":null}
{"name":"Sin","address":"2250 Autoroute 13","city":"Laval","state":"QC","postal_code":"H7X 4G8","latitude":45.5465183,"longitude":-73.8011042,"is_open":0,"attributes":{"RestaurantsAttire":"'casual'","RestaurantsReservations":"True","RestaurantsDelivery":"False","RestaurantsGoodForGroups":"True","Alcohol":"u'full_bar'","GoodForKids":"False","RestaurantsPriceRange2":"3"},"categories":"Comfort Food, Bars, Lounges, Restaurants, Nightlife","hours":{"Monday":"11:0-0:0","Tuesday":"11:0-0:0","Wednesday":"11:0-0:0","Thursday":"11:0-3:0","Friday":"11:0-3:0","Saturday":"11:30-3:0"}}
{"name":"Sauter's Inn Restaurant","address":"109 Old Kingston Road","city":"Ajax","state":"ON","postal_code":"L1T 3A6","latitude":43.8540375,"longitude":-79.0602093,"is_open":1,"attributes":{"BusinessParking":"{'garage': False, 'street': False, 'validated': False, 'lot': True, 'valet': False}","WiFi":"u'free'","RestaurantsAttire":"u'casual'","BusinessAcceptsCreditCards":"True","DogsAllowed":"False","NoiseLevel":"u'average'","BikeParking":"True","RestaurantsTableService":"True","Alcohol":"'full_bar'","RestaurantsTakeOut":"True","GoodForKids":"True","RestaurantsPriceRange2":"2","WheelchairAccessible":"True","Caters":"True","HasTV":"True","Ambience":"{'romantic': False, 'intimate': False, 'classy': False, 'hipster': False, 'divey': False, 'touristy': False, 'trendy': False, 'upscale': False, 'casual': False}","RestaurantsGoodForGroups":"True","RestaurantsDelivery":"False","OutdoorSeating":"True","RestaurantsReservations":"True"},"categories":"German, Restaurants, Hungarian, Canadian (New)","hours":{"Monday":"17:0-21:0","Tuesday":"11:30-21:0","Wednesday":"11:30-21:0","Thursday":"11:30-21:0","Friday":"11:30-21:0","Saturday":"8:30-21:0","Sunday":"8:30-21:0"}}
{"name":"Jill M Thacker - CMG Financial Representative","address":"8337 W Sunset Rd, Ste 300","city":"Las Vegas","state":"NV","postal_code":"89113","latitude":36.067968,"longitude":-115.2729698,"is_open":1,"attributes":null,"categories":"Home Services, Financial Services, Mortgage Brokers, Real Estate","hours":{"Monday":"8:0-18:0","Tuesday":"8:0-18:0","Wednesday":"8:0-18:0","Thursday":"8:0-18:0","Friday":"8:0-18:0"}}
{"name":"Lahuna poke","address":"161 Bay Street","city":"Toronto","state":"ON","postal_code":"M5J 2S1","latitude":43.6465038151,"longitude":-79.3789982369,"is_open":1,"attributes":null,"categories":"Restaurants, Food, Poke, Breakfast & Brunch, Sushi Bars, Hawaiian","hours":{"Monday":"8:0-18:0","Tuesday":"8:0-18:0","Wednesday":"8:0-18:0","Thursday":"8:0-18:0","Friday":"8:0-18:0"}}
{"name":"CJ's Italian Ice & Custard","address":"3555 S Durango Dr","city":"Las Vegas","state":"NV","postal_code":"89147","latitude":36.1250824,"longitude":-115.2794907,"is_open":1,"attributes":{"RestaurantsReservations":"True","RestaurantsAttire":"u'casual'","RestaurantsGoodForGroups":"True","GoodForKids":"True","NoiseLevel":"'average'","Alcohol":"u'none'","RestaurantsTakeOut":"True","HasTV":"False","Ambience":"{'romantic': False, 'intimate': False, 'touristy': False, 'hipster': False, 'divey': False, 'classy': False, 'trendy': False, 'upscale': False, 'casual': True}","Caters":"True","RestaurantsDelivery":"False","OutdoorSeating":"True","WiFi":"u'no'","BusinessParking":"{'garage': False, 'street': False, 'validated': False, 'lot': True, 'valet': False}","GoodForMeal":"{'dessert': True, 'latenight': False, 'lunch': False, 'dinner': False, 'brunch': False, 'breakfast': False}","RestaurantsPriceRange2":"1","BusinessAcceptsCreditCards":"True","BikeParking":"True","DogsAllowed":"False"},"categories":"Ice Cream & Frozen Yogurt, Food, Restaurants, Italian, Desserts","hours":{"Monday":"12:0-21:30","Tuesday":"12:0-21:30","Wednesday":"12:0-21:30","Thursday":"12:0-21:30","Friday":"12:0-22:0","Saturday":"12:0-22:0","Sunday":"12:0-22:0"}}
{"name":"Sunset Pizzeria","address":"869 S Boulder Hwy","city":"Henderson","state":"NV","postal_code":"89015","latitude":36.0243397,"longitude":-114.966242,"is_open":1,"attributes":{"BusinessParking":"{'garage': False, 'street': False, 'validated': False, 'lot': True, 'valet': False}","BusinessAcceptsCreditCards":"True","WiFi":"u'no'","RestaurantsDelivery":"True","Alcohol":"u'beer_and_wine'","NoiseLevel":"u'average'","Caters":"True","GoodForMeal":"{'dessert': False, 'latenight': False, 'lunch': True, 'dinner': True, 'brunch': False, 'breakfast': False}","GoodForKids":"True","RestaurantsAttire":"u'casual'","RestaurantsReservations":"False","RestaurantsTakeOut":"True","RestaurantsTableService":"False","HasTV":"True","OutdoorSeating":"True","RestaurantsGoodForGroups":"True","RestaurantsPriceRange2":"2","Ambience":"{'romantic': False, 'intimate': False, 'touristy': False, 'hipster': False, 'divey': False, 'classy': False, 'trendy': False, 'upscale': False, 'casual': True}","BikeParking":"True"},"categories":"Restaurants, Pizza","hours":null}
{"name":"McNeely Family Dentistry","address":"9550 Rocky River Rd, Ste 202","city":"Charlotte","state":"NC","postal_code":"28215","latitude":35.2841959,"longitude":-80.6626036,"is_open":1,"attributes":{"AcceptsInsurance":"True","ByAppointmentOnly":"True","BusinessAcceptsCreditCards":"True"},"categories":"Health & Medical, Cosmetic Dentists, Pediatric Dentists, Dentists, General Dentistry","hours":{"Monday":"8:0-17:0","Tuesday":"8:0-17:0","Wednesday":"8:0-17:0","Thursday":"8:0-17:0","Friday":"8:0-14:0"}}
{"name":"Mississauga City Hall","address":"300 City Centre Drive","city":"Mississauga","state":"ON","postal_code":"L5B 3C9","latitude":43.5892436,"longitude":-79.644421,"is_open":1,"attributes":{"WiFi":"'free'"},"categories":"Public Services & Government, Libraries","hours":null}
{"name":"Kevin Walker Insurance","address":"","city":"Henderson","state":"NV","postal_code":"89012","latitude":36.0311629,"longitude":-115.0293747,"is_open":1,"attributes":null,"categories":"Financial Services, Life Insurance, Home & Rental Insurance, Auto Insurance, Insurance","hours":{"Monday":"9:0-17:30","Tuesday":"9:0-17:30","Wednesday":"9:0-17:30","Thursday":"9:0-17:30","Friday":"9:0-17:0","Saturday":"9:0-13:0"}}
{"name":"New Happy Nails & Spa","address":"3585 S Durango Dr","city":"Las Vegas","state":"NV","postal_code":"89147","latitude":36.1247923,"longitude":-115.2799153,"is_open":1,"attributes":{"BusinessParking":"{'garage': False, 'street': False, 'validated': False, 'lot': True, 'valet': False}","ByAppointmentOnly":"False","BikeParking":"True","RestaurantsPriceRange2":"2","BusinessAcceptsCreditCards":"True"},"categories":"Nail Salons, Beauty & Spas","hours":{"Monday":"9:30-19:0","Tuesday":"9:30-19:0","Wednesday":"9:30-19:0","Thursday":"9:30-19:0","Friday":"9:30-19:0","Saturday":"9:30-19:0","Sunday":"11:0-17:0"}}
{"name":"Prestige Assisted Living At Henderson","address":"1050 E Lake Mead Pkwy","city":"Henderson","state":"NV","postal_code":"89015","latitude":36.0651970054,"longitude":-114.9554443359,"is_open":1,"attributes":{"BusinessAcceptsCreditCards":"True","ByAppointmentOnly":"True"},"categories":"Retirement Homes, Assisted Living Facilities, Health & Medical","hours":{"Monday":"8:0-17:0","Tuesday":"8:0-17:0","Wednesday":"8:0-17:0","Thursday":"8:0-17:0","Friday":"8:0-17:0","Saturday":"8:0-17:0","Sunday":"8:0-17:0"}}
{"name":"Five Guys","address":"8234 Greenway Blvd","city":"Middleton","state":"WI","postal_code":"53562","latitude":43.0906280441,"longitude":-89.5241067527,"is_open":1,"attributes":{"Caters":"False","RestaurantsTableService":"False","RestaurantsDelivery":"False","HasTV":"False","BusinessAcceptsCreditCards":"True","RestaurantsAttire":"u'casual'","DriveThru":"False","RestaurantsGoodForGroups":"True","OutdoorSeating":"True","NoiseLevel":"u'loud'","GoodForMeal":"{'dessert': False, 'latenight': False, 'lunch': True, 'dinner': False, 'brunch': False, 'breakfast': False}","Alcohol":"u'none'","GoodForKids":"True","BikeParking":"False","RestaurantsReservations":"False","Ambience":"{'romantic': False, 'intimate': False, 'classy': False, 'hipster': False, 'divey': False, 'touristy': False, 'trendy': False, 'upscale': False, 'casual': True}","WiFi":"'no'","BusinessParking":"{'garage': False, 'street': False, 'validated': False, 'lot': True, 'valet': False}","RestaurantsPriceRange2":"2","RestaurantsTakeOut":"True"},"categories":"Fast Food, Burgers, Restaurants, Hot Dogs","hours":{"Monday":"11:0-22:0","Tuesday":"11:0-22:0","Wednesday":"11:0-22:0","Thursday":"11:0-22:0","Friday":"11:0-22:0","Saturday":"11:0-22:0","Sunday":"11:0-22:0"}}
{"name":"Choice Memorial & Cremation Services","address":"4715-13th Street NE, Suite 105","city":"Calgary","state":"AB","postal_code":"T2E 6M3","latitude":51.095051,"longitude":-114.031402,"is_open":1,"attributes":null,"categories":"Cremation Services, Local Services, Funeral Services & Cemeteries","hours":{"Monday":"0:0-0:0","Tuesday":"0:0-0:0","Wednesday":"0:0-0:0","Thursday":"0:0-0:0","Friday":"0:0-0:0","Saturday":"0:0-0:0","Sunday":"0:0-0:0"}}
{"name":"The Bowery","address":"55 Colborne Street","city":"Toronto","state":"ON","postal_code":"M5E 1C6","latitude":43.6490711,"longitude":-79.3746787,"is_open":0,"attributes":{"BusinessParking":"{'garage': False, 'street': True, 'validated': False, 'lot': False, 'valet': False}","RestaurantsAttire":"u'casual'","GoodForKids":"False","RestaurantsGoodForGroups":"True","RestaurantsReservations":"True","NoiseLevel":"u'loud'","OutdoorSeating":"False","HasTV":"True","Ambience":"{'romantic': False, 'intimate': False, 'classy': False, 'upscale': False, 'touristy': False, 'trendy': False, 'casual': False}","Alcohol":"u'full_bar'","RestaurantsPriceRange2":"3"},"categories":"Restaurants, Mediterranean","hours":null}
{"name":"Jim Dickerson Company","address":"7832 Pence Rd","city":"Charlotte","state":"NC","postal_code":"28215","latitude":35.2205512,"longitude":-80.700433,"is_open":1,"attributes":{"BusinessAcceptsCreditCards":"True","BusinessAcceptsBitcoin":"False","ByAppointmentOnly":"True"},"categories":"Heating & Air Conditioning\/HVAC, Electricians, Plumbing, Home Services","hours":{"Monday":"0:0-0:0","Tuesday":"0:0-0:0","Wednesday":"0:0-0:0","Thursday":"0:0-0:0","Friday":"0:0-0:0","Saturday":"0:0-0:0","Sunday":"0:0-0:0"}}
{"name":"Bank of America","address":"8625 Arbor Creek Dr","city":"Charlotte","state":"NC","postal_code":"28269","latitude":35.382967,"longitude":-80.7859357,"is_open":1,"attributes":null,"categories":"Home Services, Real Estate, Financial Services, Banks & Credit Unions, Mortgage Brokers","hours":null}
{"name":"Hair Designs by Vanessa","address":"4005 S El Capitan Way","city":"Las Vegas","state":"NV","postal_code":"89147","latitude":36.1165448,"longitude":-115.2884575,"is_open":1,"attributes":{"GoodForKids":"True","ByAppointmentOnly":"True","BikeParking":"True","BusinessParking":"{'garage': False, 'street': False, 'validated': False, 'lot': True, 'valet': False}","RestaurantsPriceRange2":"2","BusinessAcceptsCreditCards":"True"},"categories":"Beauty & Spas, Hair Salons, Hair Stylists","hours":{"Wednesday":"9:0-19:0","Thursday":"9:0-17:0","Sunday":"9:0-18:0"}}
{"name":"The Brass Monkey","address":"3826 S New Hope Rd","city":"Gastonia","state":"NC","postal_code":"28056","latitude":35.2206765802,"longitude":-81.0959599166,"is_open":0,"attributes":{"WiFi":"'free'","RestaurantsAttire":"'casual'","GoodForMeal":"{'dessert': False, 'latenight': False, 'lunch': False, 'dinner': False, 'brunch': False, 'breakfast': False}","Ambience":"{'touristy': False, 'hipster': False, 'romantic': False, 'divey': False, 'intimate': False, 'trendy': False, 'upscale': False, 'classy': False, 'casual': False}","OutdoorSeating":"True","BusinessAcceptsCreditCards":"True","RestaurantsReservations":"False","RestaurantsTakeOut":"True","GoodForKids":"True","RestaurantsDelivery":"True","RestaurantsPriceRange2":"2","RestaurantsGoodForGroups":"True"},"categories":"Italian, Restaurants, Seafood","hours":{"Tuesday":"11:0-22:0","Wednesday":"11:0-22:0","Thursday":"11:0-22:0","Friday":"11:0-22:30","Saturday":"11:0-22:30","Sunday":"11:0-21:30"}}
{"name":"Mountain View Orthodontics","address":"1811 S Rainbow Blvd, Ste 109","city":"Las Vegas","state":"NV","postal_code":"89146","latitude":36.1509351,"longitude":-115.243893,"is_open":1,"attributes":{"BusinessAcceptsCreditCards":"True","ByAppointmentOnly":"True","AcceptsInsurance":"True"},"categories":"Dentists, Health & Medical, Orthodontists","hours":{"Monday":"9:0-17:0","Tuesday":"9:0-17:0","Wednesday":"9:0-17:0","Thursday":"9:0-17:0","Friday":"9:0-17:0","Saturday":"9:0-14:0"}}
{"name":"We Print What You Want","address":"2545 Hurontario Street","city":"Mississauga","state":"ON","postal_code":"L5A 2G4","latitude":43.579639,"longitude":-79.614783,"is_open":1,"attributes":null,"categories":"Professional Services, Women's Clothing, Local Services, Shopping, Fashion, Printing Services, Graphic Design, Men's Clothing","hours":{"Tuesday":"11:0-19:0","Wednesday":"11:0-19:0","Thursday":"11:0-19:0","Friday":"11:0-19:0","Saturday":"11:0-19:0"}}
{"name":"The Diner On Clifton","address":"11637 Clifton Blvd","city":"Cleveland","state":"OH","postal_code":"44102","latitude":41.4872555789,"longitude":-81.7685083205,"is_open":0,"attributes":{"NoiseLevel":"u'average'","Alcohol":"u'none'","RestaurantsAttire":"u'casual'","RestaurantsTakeOut":"True","Caters":"False","WiFi":"'no'","BusinessParking":"{'garage': False, 'street': False, 'validated': False, 'lot': True, 'valet': False}","HasTV":"False","GoodForMeal":"{'dessert': False, 'latenight': False, 'lunch': False, 'dinner': False, 'brunch': False, 'breakfast': True}","GoodForKids":"True","BusinessAcceptsCreditCards":"True","Ambience":"{'romantic': False, 'intimate': False, 'touristy': False, 'hipster': False, 'divey': False, 'classy': False, 'trendy': False, 'upscale': False, 'casual': True}","OutdoorSeating":"False","BikeParking":"True","RestaurantsDelivery":"False","RestaurantsTableService":"True","RestaurantsPriceRange2":"1","RestaurantsGoodForGroups":"False","RestaurantsReservations":"False"},"categories":"Restaurants, Diners","hours":{"Monday":"7:0-23:0","Tuesday":"7:0-23:0","Wednesday":"7:0-23:0","Thursday":"7:0-23:0","Friday":"7:0-23:0","Saturday":"7:0-23:0","Sunday":"7:0-23:0"}}
{"name":"Burger King","address":"7240 Kennedy Road","city":"Markham","state":"ON","postal_code":"L3R 9S5","latitude":43.8321040305,"longitude":-79.3062403917,"is_open":0,"attributes":{"RestaurantsTakeOut":"True","RestaurantsPriceRange2":"1"},"categories":"Burgers, Fast Food, Restaurants","hours":null}
{"name":"Monk's Bar & Grill - Middleton","address":"8313 Murphy Dr","city":"Middleton","state":"WI","postal_code":"53562","latitude":43.0974812,"longitude":-89.524171,"is_open":1,"attributes":{"RestaurantsReservations":"True","Ambience":"{'romantic': False, 'intimate': False, 'touristy': False, 'hipster': False, 'divey': False, 'classy': False, 'trendy': False, 'upscale': False, 'casual': True}","BikeParking":"True","GoodForKids":"True","OutdoorSeating":"True","BusinessParking":"{'garage': False, 'street': False, 'validated': False, 'lot': True, 'valet': False}","RestaurantsDelivery":"False","GoodForMeal":"{'dessert': False, 'latenight': False, 'lunch': True, 'dinner': True, 'brunch': False, 'breakfast': False}","NoiseLevel":"u'average'","BusinessAcceptsCreditCards":"True","RestaurantsTakeOut":"True","Caters":"True","Alcohol":"u'full_bar'","RestaurantsPriceRange2":"2","Music":"{'dj': False, 'background_music': False, 'no_music': False, 'jukebox': False, 'live': False, 'video': False, 'karaoke': False}","HasTV":"True","BestNights":"{'monday': False, 'tuesday': False, 'friday': True, 'wednesday': False, 'thursday': False, 'sunday': True, 'saturday': True}","WiFi":"u'free'","RestaurantsAttire":"u'casual'","RestaurantsGoodForGroups":"True"},"categories":"Restaurants, Nightlife, Bars, American (Traditional), Sports Bars, Burgers, Gluten-Free","hours":{"Monday":"11:0-23:0","Tuesday":"11:0-23:0","Wednesday":"11:0-23:0","Thursday":"11:0-23:0","Friday":"11:0-23:0","Saturday":"11:0-23:0","Sunday":"11:0-23:0"}}
{"name":"Adda Coffee & Tea House","address":"200 South Highland Ave","city":"Pittsburgh","state":"PA","postal_code":"15206","latitude":40.4587819424,"longitude":-79.9252286378,"is_open":1,"attributes":{"BusinessParking":"{'garage': False, 'street': True, 'validated': False, 'lot': False, 'valet': False}","BikeParking":"True","OutdoorSeating":"False","RestaurantsPriceRange2":"1","Caters":"False","WheelchairAccessible":"True","BusinessAcceptsCreditCards":"True","RestaurantsTakeOut":"True","BusinessAcceptsBitcoin":"False","WiFi":"u'free'"},"categories":"Tea Rooms, Restaurants, Coffee & Tea, Vegan, Food","hours":{"Monday":"7:0-18:0","Tuesday":"7:0-18:0","Wednesday":"7:0-18:0","Thursday":"7:0-18:0","Friday":"7:0-18:0","Saturday":"7:0-18:0","Sunday":"8:0-18:0"}}
{"name":"Flame Kabob","address":"4440 S Maryland Pkwy, Ste 109","city":"Las Vegas","state":"NV","postal_code":"89119","latitude":36.1086435451,"longitude":-115.1372337341,"is_open":0,"attributes":{"HasTV":"True","RestaurantsReservations":"False","RestaurantsGoodForGroups":"True","RestaurantsTakeOut":"True","RestaurantsAttire":"u'casual'","Ambience":"{'romantic': False, 'intimate': False, 'touristy': False, 'hipster': False, 'divey': False, 'classy': False, 'trendy': False, 'upscale': False, 'casual': True}","NoiseLevel":"'average'","WiFi":"u'free'","BusinessAcceptsCreditCards":"True","BusinessParking":"{'garage': False, 'street': True, 'validated': False, 'lot': True, 'valet': False}","RestaurantsDelivery":"True","GoodForKids":"True","OutdoorSeating":"True","Caters":"True","BikeParking":"True","RestaurantsPriceRange2":"2","Alcohol":"u'none'"},"categories":"Halal, Restaurants, Mediterranean, Persian\/Iranian","hours":null}
{"name":"Luci's Healthy Marketplace","address":"1590 E Bethany Home Rd","city":"Phoenix","state":"AZ","postal_code":"85014","latitude":33.5239465,"longitude":-112.0478991,"is_open":1,"attributes":{"BusinessAcceptsCreditCards":"True","BusinessParking":"{'garage': False, 'street': False, 'validated': False, 'lot': True, 'valet': False}","Caters":"True","GoodForMeal":"{'dessert': False, 'latenight': False, 'lunch': True, 'dinner': False, 'brunch': True, 'breakfast': True}","RestaurantsDelivery":"True","RestaurantsPriceRange2":"2","WiFi":"u'free'","ByAppointmentOnly":"False","RestaurantsGoodForGroups":"True","RestaurantsAttire":"'casual'","GoodForKids":"True","RestaurantsTakeOut":"True","Ambience":"{'touristy': False, 'hipster': True, 'romantic': False, 'divey': False, 'intimate': False, 'trendy': False, 'upscale': False, 'classy': False, 'casual': True}","BikeParking":"True","OutdoorSeating":"True","RestaurantsReservations":"False","HasTV":"True","NoiseLevel":"'average'","Alcohol":"u'beer_and_wine'"},"categories":"Restaurants, Cafes, Comfort Food, Coffee & Tea, Caterers, Event Planning & Services, Specialty Food, Health Markets, Food, Shopping","hours":{"Monday":"6:0-20:0","Tuesday":"6:0-20:0","Wednesday":"6:0-20:0","Thursday":"6:0-20:0","Friday":"6:0-20:0","Saturday":"6:0-20:0","Sunday":"6:0-20:0"}}
{"name":"Shoppes at River's Edge","address":"951 Cel River","city":"Rock Hill","state":"SC","postal_code":"29730","latitude":34.9745424,"longitude":-80.9837402,"is_open":1,"attributes":{"RestaurantsPriceRange2":"2","BusinessAcceptsCreditCards":"True","WheelchairAccessible":"True","BusinessParking":"{'garage': False, 'street': False, 'validated': False, 'lot': True, 'valet': False}","BikeParking":"False","ByAppointmentOnly":"False"},"categories":"Home Decor, Home & Garden, Antiques, Shopping","hours":{"Tuesday":"10:0-18:0","Wednesday":"10:0-18:0","Thursday":"10:0-18:0","Friday":"10:0-18:0","Saturday":"10:0-17:0"}}
{"name":"Byron's Plumbing","address":"3639 Manchester Road SE","city":"Calgary","state":"AB","postal_code":"T2G 3Z7","latitude":51.0216205,"longitude":-114.0574635,"is_open":1,"attributes":null,"categories":"Heating & Air Conditioning\/HVAC, Home Services, Contractors, Water Heater Installation\/Repair, Plumbing","hours":{"Monday":"7:0-16:0","Tuesday":"7:0-16:0","Wednesday":"7:0-16:0","Thursday":"7:0-16:0","Friday":"7:0-16:0"}}
{"name":"Flight Deck Cafe","address":"5803 S Sossaman Rd","city":"Mesa","state":"AZ","postal_code":"85212","latitude":33.3107473,"longitude":-111.6698695,"is_open":0,"attributes":{"RestaurantsPriceRange2":"1","GoodForKids":"True","BusinessAcceptsCreditCards":"True","RestaurantsGoodForGroups":"True","Alcohol":"u'none'","BikeParking":"True","RestaurantsTakeOut":"True","RestaurantsDelivery":"False","RestaurantsAttire":"u'casual'","NoiseLevel":"u'average'","HasTV":"False","BusinessParking":"{'garage': False, 'street': False, 'validated': False, 'lot': False, 'valet': False}","Ambience":"{'romantic': False, 'intimate': False, 'classy': False, 'hipster': False, 'divey': False, 'touristy': False, 'trendy': False, 'upscale': False, 'casual': True}","OutdoorSeating":"False","WiFi":"'free'","RestaurantsReservations":"True"},"categories":"Cafes, Restaurants","hours":{"Tuesday":"7:30-14:0","Wednesday":"7:30-14:0","Thursday":"7:30-14:0","Friday":"7:30-14:0","Saturday":"7:30-13:0","Sunday":"7:30-13:0"}}
{"name":"Oriental Market","address":"4768 Mcknight Rd","city":"Pittsburgh","state":"PA","postal_code":"15237","latitude":40.5199079,"longitude":-80.004319,"is_open":1,"attributes":{"BikeParking":"False","BusinessParking":"{'garage': False, 'street': False, 'validated': False, 'lot': True, 'valet': False}","BusinessAcceptsCreditCards":"True","RestaurantsPriceRange2":"1","RestaurantsTakeOut":"False"},"categories":"Food, Grocery, Ethnic Grocery, International Grocery","hours":{"Monday":"9:0-21:0","Tuesday":"9:0-21:0","Wednesday":"9:0-21:0","Thursday":"9:0-21:0","Friday":"9:0-21:0","Saturday":"9:0-21:0","Sunday":"9:0-19:0"}}
{"name":"Cinnaholic","address":"30323 Detroit Rd","city":"Westlake","state":"OH","postal_code":"44145","latitude":41.4621363,"longitude":-81.9561202,"is_open":1,"attributes":{"HasTV":"False","GoodForKids":"True","RestaurantsGoodForGroups":"True","Alcohol":"'none'","RestaurantsTakeOut":"True","BusinessAcceptsCreditCards":"True","Ambience":"{'touristy': False, 'hipster': False, 'romantic': False, 'divey': False, 'intimate': False, 'trendy': False, 'upscale': False, 'classy': False, 'casual': False}","RestaurantsPriceRange2":"1","RestaurantsAttire":"'casual'","OutdoorSeating":"False","BusinessParking":"{'garage': False, 'street': False, 'validated': False, 'lot': True, 'valet': False}","RestaurantsReservations":"False","WiFi":"'free'","GoodForMeal":"{'dessert': False, 'latenight': False, 'lunch': False, 'dinner': False, 'brunch': False, 'breakfast': False}"},"categories":"Bakeries, Restaurants, Vegan, Desserts, Food","hours":{"Monday":"0:0-0:0","Tuesday":"10:0-20:0","Wednesday":"10:0-21:0","Thursday":"9:0-21:0","Friday":"9:0-22:0","Saturday":"9:0-22:0","Sunday":"10:0-21:0"}}
{"name":"Sushi Box","address":"2433 University Ave","city":"Madison","state":"WI","postal_code":"53726","latitude":43.0718934,"longitude":-89.4284267,"is_open":0,"attributes":{"RestaurantsPriceRange2":"2","RestaurantsGoodForGroups":"False","RestaurantsTakeOut":"True","RestaurantsAttire":"'casual'","BusinessParking":"{'garage': False, 'street': True, 'validated': False, 'lot': True, 'valet': False}","BusinessAcceptsCreditCards":"True","RestaurantsReservations":"False","Alcohol":"u'beer_and_wine'","OutdoorSeating":"False","Ambience":"{'romantic': False, 'intimate': False, 'touristy': False, 'hipster': False, 'divey': False, 'classy': False, 'trendy': False, 'upscale': False, 'casual': True}","BikeParking":"True","HasTV":"True","GoodForKids":"True","NoiseLevel":"u'quiet'","WiFi":"u'no'","RestaurantsDelivery":"False"},"categories":"Restaurants, Japanese, Asian Fusion, Sushi Bars","hours":{"Monday":"11:0-20:30","Tuesday":"11:0-20:30","Wednesday":"11:0-20:30","Thursday":"11:0-20:30","Friday":"11:0-20:30","Saturday":"11:0-20:30"}}
{"name":"Elysian West","address":"5175 Jerry Tarkanian Way","city":"Las Vegas","state":"NV","postal_code":"89148","latitude":36.0947017,"longitude":-115.2916452,"is_open":1,"attributes":{"BusinessAcceptsCreditCards":"True","ByAppointmentOnly":"False","WheelchairAccessible":"True"},"categories":"Apartments, Home Services, Real Estate","hours":{"Monday":"9:0-18:0","Tuesday":"9:0-18:0","Wednesday":"9:0-18:0","Thursday":"9:0-18:0","Friday":"9:0-18:0","Saturday":"10:0-17:0","Sunday":"10:0-17:0"}}
{"name":"Nevada Yacht Club","address":"","city":"Las Vegas","state":"NV","postal_code":"89015","latitude":36.0552472,"longitude":-114.9279547,"is_open":1,"attributes":{"BusinessParking":"{'garage': False, 'street': False, 'validated': False, 'lot': False, 'valet': False}"},"categories":"Sailing, Active Life, Sports Clubs, Boating","hours":null}
{"name":"Gentle Dental Deer Valley","address":"3414 W Union Hills Dr, Ste 140","city":"Phoenix","state":"AZ","postal_code":"85027","latitude":33.6556552,"longitude":-112.1326821,"is_open":1,"attributes":{"AcceptsInsurance":"True","BusinessAcceptsCreditCards":"True","ByAppointmentOnly":"True"},"categories":"Cosmetic Dentists, Dentists, Orthodontists, Oral Surgeons, Health & Medical, General Dentistry","hours":{"Monday":"9:0-18:0","Tuesday":"9:0-18:0","Wednesday":"9:0-18:0","Thursday":"9:0-18:0","Saturday":"8:0-14:0"}}
{"name":"Good Neighbor Fencing","address":"222 Merry St","city":"Madison","state":"WI","postal_code":"53704","latitude":43.0889659,"longitude":-89.3585191,"is_open":1,"attributes":null,"categories":"Home Services, Fences & Gates","hours":null}
{"name":"Brit & Chips","address":"5536A Côte-des-Neiges","city":"Montréal","state":"QC","postal_code":"H3T 1Y8","latitude":45.4973823,"longitude":-73.6249601,"is_open":1,"attributes":{"RestaurantsAttire":"u'casual'","Caters":"False","Alcohol":"u'beer_and_wine'","RestaurantsPriceRange2":"2","Ambience":"{'romantic': False, 'intimate': False, 'classy': False, 'hipster': False, 'divey': False, 'touristy': False, 'trendy': False, 'upscale': False, 'casual': True}","HasTV":"False","BusinessParking":"{'garage': False, 'street': False, 'validated': False, 'lot': False, 'valet': False}","GoodForKids":"True","BikeParking":"True","RestaurantsTableService":"True","RestaurantsGoodForGroups":"True","RestaurantsTakeOut":"True","OutdoorSeating":"True","GoodForMeal":"{'dessert': False, 'latenight': False, 'lunch': True, 'dinner': False, 'brunch': False, 'breakfast': False}","NoiseLevel":"u'average'","WiFi":"'paid'","RestaurantsDelivery":"False","RestaurantsReservations":"True"},"categories":"Fish & Chips, Restaurants","hours":{"Monday":"11:0-22:0","Tuesday":"11:0-22:0","Wednesday":"11:0-22:0","Thursday":"11:0-22:0","Friday":"11:0-23:0","Saturday":"11:0-23:0","Sunday":"11:0-22:0"}}
{"name":"Symposium Cafe Restaurant & Lounge","address":"192 McEwan Drive E","city":"Bolton","state":"ON","postal_code":"L7E 4E5","latitude":43.8626708,"longitude":-79.7090127,"is_open":1,"attributes":{"RestaurantsPriceRange2":"2","Ambience":"{'romantic': False, 'intimate': False, 'classy': False, 'hipster': False, 'divey': False, 'touristy': False, 'trendy': False, 'upscale': False, 'casual': False}","HasTV":"True","GoodForKids":"True","OutdoorSeating":"True","RestaurantsGoodForGroups":"True","Smoking":"u'no'","DogsAllowed":"False","Alcohol":"u'full_bar'","RestaurantsDelivery":"False","NoiseLevel":"'average'","WheelchairAccessible":"True","RestaurantsAttire":"'casual'","Music":"{'dj': False, 'background_music': False, 'no_music': False, 'jukebox': False, 'live': False, 'video': False, 'karaoke': False}","RestaurantsReservations":"True","BusinessParking":"{'garage': False, 'street': False, 'validated': False, 'lot': True, 'valet': False}","CoatCheck":"False","WiFi":"u'free'","RestaurantsTakeOut":"True","Caters":"True","GoodForMeal":"{'dessert': False, 'latenight': False, 'lunch': False, 'dinner': False, 'brunch': False, 'breakfast': False}","RestaurantsTableService":"True","HappyHour":"True","BikeParking":"True"},"categories":"Nightlife, American (Traditional), Bars, Restaurants, Breakfast & Brunch, Lounges, Cafes","hours":{"Monday":"8:0-0:0","Tuesday":"8:0-0:0","Wednesday":"8:0-0:0","Thursday":"8:0-0:0","Friday":"8:0-1:0","Saturday":"8:0-1:0","Sunday":"8:0-0:0"}}
{"name":"Mail & Business Center","address":"929 N Val Vista Dr, Ste 109","city":"Gilbert","state":"AZ","postal_code":"85234","latitude":33.3672589,"longitude":-111.7548189,"is_open":1,"attributes":{"BusinessAcceptsCreditCards":"True"},"categories":"Shipping Centers, Mailbox Centers, Post Offices, Public Services & Government, Notaries, Local Services","hours":{"Monday":"0:0-0:0","Tuesday":"9:0-17:30","Wednesday":"9:0-17:30","Thursday":"9:0-17:30","Friday":"9:0-17:30","Saturday":"9:0-15:0"}}
{"name":"Law Offices of Stefan R Latorre, PA","address":"2629 Central Ave","city":"Charlotte","state":"NC","postal_code":"28205","latitude":35.2194431,"longitude":-80.7980233,"is_open":1,"attributes":null,"categories":"Immigration Law, Professional Services, Personal Injury Law, Criminal Defense Law, Lawyers","hours":{"Monday":"8:0-18:0","Tuesday":"8:0-18:0","Wednesday":"8:0-18:0","Thursday":"8:0-18:0","Friday":"8:0-18:0","Saturday":"10:0-14:0"}}
{"name":"Bk Custom Cleaners","address":"Sadler Square Shoppi","city":"Davidson","state":"NC","postal_code":"28036","latitude":35.4874459,"longitude":-80.7990185,"is_open":1,"attributes":null,"categories":"Laundry Services, Dry Cleaning & Laundry, Local Services","hours":null}
{"name":"Indian Tandoori House","address":"4862 Yonge Street","city":"Toronto","state":"ON","postal_code":"M2N 5N2","latitude":43.7629282,"longitude":-79.4115105,"is_open":0,"attributes":{"RestaurantsDelivery":"True","OutdoorSeating":"False","RestaurantsTakeOut":"True","RestaurantsGoodForGroups":"True","HasTV":"False","RestaurantsPriceRange2":"2","RestaurantsAttire":"u'casual'","RestaurantsReservations":"True","BusinessParking":"{'garage': False, 'street': True, 'validated': False, 'lot': False, 'valet': False}","Alcohol":"u'full_bar'","NoiseLevel":"u'average'","WiFi":"u'no'","GoodForKids":"True","Ambience":"{'romantic': False, 'intimate': False, 'classy': False, 'hipster': False, 'divey': False, 'touristy': False, 'trendy': False, 'upscale': False, 'casual': True}"},"categories":"Indian, Restaurants","hours":null}
{"name":"Gelato Bar","address":"3849 Spring Mountain Rd","city":"Las Vegas","state":"NV","postal_code":"89102","latitude":36.1265013,"longitude":-115.1912003,"is_open":1,"attributes":{"RestaurantsPriceRange2":"1","BusinessAcceptsCreditCards":"True","BusinessParking":"{'garage': False, 'street': False, 'validated': False, 'lot': True, 'valet': False}","Caters":"False","RestaurantsDelivery":"False","ByAppointmentOnly":"False","RestaurantsTakeOut":"True","WheelchairAccessible":"True","BikeParking":"True","Alcohol":"'none'","WiFi":"u'free'","OutdoorSeating":"False","GoodForMeal":"{'dessert': False, 'latenight': False, 'lunch': False, 'dinner': False, 'brunch': False, 'breakfast': False}"},"categories":"Desserts, Coffee & Tea, Food, Gelato","hours":{"Monday":"0:0-0:0","Tuesday":"11:0-1:0","Wednesday":"11:0-1:0","Thursday":"11:0-1:0","Friday":"11:0-1:0","Saturday":"11:0-1:0","Sunday":"13:0-21:0"}}
{"name":"Sheraton Furniture","address":"3806 Erie St","city":"Willoughby","state":"OH","postal_code":"44094","latitude":41.6460265,"longitude":-81.4069747,"is_open":1,"attributes":null,"categories":"Home & Garden, Shopping, Home Decor, Interior Design, Medical Supplies, Carpeting, Flooring, Home Services, Furniture Stores","hours":{"Monday":"9:0-17:0","Tuesday":"9:0-17:0","Wednesday":"9:0-17:0","Thursday":"9:0-17:0","Friday":"9:0-17:0"}}
{"name":"Snakes & Lattes College","address":"489 College Street","city":"Toronto","state":"ON","postal_code":"M6G 1A5","latitude":43.6558739,"longitude":-79.4091916,"is_open":1,"attributes":{"HasTV":"False","WiFi":"u'free'","WheelchairAccessible":"True","GoodForKids":"True","RestaurantsDelivery":"False","NoiseLevel":"u'loud'","Caters":"True","BusinessParking":"{'garage': False, 'street': True, 'validated': False, 'lot': False, 'valet': False}","Alcohol":"u'full_bar'","GoodForMeal":"{'dessert': True, 'latenight': False, 'lunch': False, 'dinner': False, 'brunch': False, 'breakfast': False}","DogsAllowed":"False","Smoking":"u'no'","CoatCheck":"False","Music":"{'dj': False, 'background_music': False, 'no_music': False, 'jukebox': False, 'live': False, 'video': False, 'karaoke': False}","RestaurantsTakeOut":"True","RestaurantsTableService":"True","RestaurantsPriceRange2":"2","OutdoorSeating":"False","RestaurantsAttire":"u'casual'","Ambience":"{'touristy': False, 'hipster': True, 'romantic': False, 'intimate': False, 'trendy': False, 'upscale': False, 'classy': False, 'casual': True}","HappyHour":"False","RestaurantsGoodForGroups":"True","RestaurantsReservations":"False","BikeParking":"False","BestNights":"{'monday': True, 'tuesday': False, 'friday': True, 'wednesday': True, 'thursday': False, 'sunday': False, 'saturday': False}","GoodForDancing":"False"},"categories":"Pubs, Restaurants, Shopping, Cafes, Nightlife, Gastropubs, Bars, Tabletop Games","hours":{"Monday":"11:0-0:0","Tuesday":"11:0-0:0","Wednesday":"11:0-0:0","Thursday":"11:0-1:0","Friday":"11:0-3:0","Saturday":"11:0-3:0","Sunday":"11:0-0:0"}}
{"name":"Bautista Landscape","address":"5534 Annie Oakley Dr","city":"Las Vegas","state":"NV","postal_code":"89120","latitude":36.029483,"longitude":-115.208272,"is_open":1,"attributes":{"ByAppointmentOnly":"True","BusinessAcceptsCreditCards":"True"},"categories":"Landscape Architects, Landscaping, Lighting Fixtures & Equipment, Home Services","hours":{"Monday":"7:0-16:0","Tuesday":"7:0-16:0","Wednesday":"7:0-16:0","Thursday":"7:0-16:0","Friday":"7:0-16:0","Saturday":"7:0-16:0"}}
{"name":"Pearle Vision","address":"796 Howe Ave","city":"Cuyahoga Falls","state":"OH","postal_code":"44221","latitude":41.118699,"longitude":-81.47198,"is_open":1,"attributes":{"ByAppointmentOnly":"False","RestaurantsPriceRange2":"3"},"categories":"Health & Medical, Eyewear & Opticians, Shopping, Optometrists","hours":{"Monday":"10:0-19:0","Tuesday":"10:0-19:0","Wednesday":"10:0-19:0","Thursday":"10:0-19:0","Friday":"10:0-19:0","Saturday":"9:0-17:0"}}
{"name":"DICK'S Sporting Goods","address":"17071 Southpark Ctr","city":"Strongsville","state":"OH","postal_code":"44136","latitude":41.307965,"longitude":-81.8183495,"is_open":1,"attributes":{"BikeParking":"False","RestaurantsPriceRange2":"2","BusinessAcceptsCreditCards":"True","BusinessParking":"{'garage': False, 'street': False, 'validated': False, 'lot': True, 'valet': False}"},"categories":"Shopping, Fashion, Fitness\/Exercise Equipment, Golf Equipment, Outdoor Gear, Sporting Goods, Sports Wear","hours":{"Monday":"9:0-21:30","Tuesday":"9:0-21:30","Wednesday":"9:0-21:30","Thursday":"9:0-21:30","Friday":"9:0-21:30","Saturday":"9:0-21:30","Sunday":"10:0-19:0"}}
{"name":"Collins Commercial Services","address":"16413 North 91st St, Ste C150","city":"Scottsdale","state":"AZ","postal_code":"85260","latitude":33.6342539,"longitude":-111.8842929,"is_open":1,"attributes":{"BusinessAcceptsCreditCards":"True"},"categories":"Plumbing, Heating & Air Conditioning\/HVAC, Home Services","hours":null}
{"name":"Office Max","address":"12841 N Tatum Blvd","city":"Phoenix","state":"AZ","postal_code":"85032","latitude":33.6027602,"longitude":-111.9764969,"is_open":1,"attributes":{"BikeParking":"True","BusinessAcceptsCreditCards":"True","BusinessParking":"{'garage': False, 'street': False, 'validated': False, 'lot': True, 'valet': False}","RestaurantsPriceRange2":"2"},"categories":"Office Equipment, Shopping, Computers","hours":{"Monday":"8:0-21:0","Tuesday":"8:0-21:0","Wednesday":"8:0-21:0","Thursday":"8:0-21:0","Friday":"8:0-21:0","Saturday":"9:0-19:0","Sunday":"10:0-18:0"}}
